{"work":[{"description":"A web developer or programmer is someone who takes a web design - which has been created by either a client or a design team - and turns it into a website.","role":"Web Developer","start_date":"2020-06-01","institution":{"name":"Brainy Resolution"},"location":{"country":"Brazil","state":"Pernambuco","city":"Recife"}},{"description":"Innovation project with the Conselho Nacional de Justi\u00e7a (CNJ). This is the Process Mining Laboratory project in the Judiciary. The project involves research in process mining, study of existing tools and design and development of a process mining tool with a focus on the Brazilian judiciary.","role":"Junior Researcher","start_date":"2020-12-01","institution":{"name":"Centro de Inform\u00e1tica - UFPE"},"location":{"country":"Brazil","state":"Pernambuco","city":"Recife"}}],"achievement":[{"name":"C\u00e9lulas Empreendedoras","end_date":"2018-09-01","institution":{"name":"Federal Institute of Pernambuco"},"start_date":"2018-08-26","place":"3th","location":{"country":"Brazil","state":"Pernambuco","city":"Recife"}}],"education":[{"description":"The Bachelor's Degree in Computer Science has as main objective to provide a well-founded basic training, enabling\nits graduates both for the job market and for the academic career, with particular incentive to the creation of companies through the\nexisting infrastructure at the Computer Center for the incubation of new companies operating in the sector.","course":"Computer Science","start_date":"2019-02-18","institution":{"name":"Federal University of Pernambuco"},"location":{"country":"Brazil","state":"Pernambuco","city":"Recife"}},{"description":"The Computer Technician develops computer programs, following the specifications and paradigms of the programming logic and the\nprogramming languages. Uses systems development environments, operating systems and databases. Performs\ncomputer programs, keeping records that allow analysis and refinement of results. Performs maintenance of\ndeployed computers.","course":"Computer Technician","end_date":"2018-12-15","start_date":"2015-03-01","institution":{"name":"Federal Institute of Pernambuco"},"location":{"country":"Brazil","state":"Pernambuco","city":"Afogados da Ingazeira"}}],"header":{"linkedin":"https://www.linkedin.com/in/gabriel-n-132451122/","phone":"+55 81 999658314","homepage":"gabrielnogueiralt.github.io","github":"gabrielnogueiralt","email":"gnl2@cin.ufpe.br","birthday":"2000-05-03","address":"Rua Dra Maria de F\u00e1tima Vieira Costa","name":"Gabriel Nogueira Leite"},"project":[],"language":[{"language":"English ","level":"Advanced"},{"language":"Portuguese","level":"Native"}],"academic":[{"start_date":"2019-08-01","institution":{"name":"Federal University of Pernambuco"},"name":"Monitor de Introdu\u00e7\u00e3o \u00e0 Computa\u00e7\u00e3o IF668","location":{"country":"Brazil","state":"Pernambuco","city":"Recife"}},{"description":"We are students of the Computer Center who are involved in teaching, research and extension activities, seeking to improve the undergraduate experience for all students.","start_date":"2019-05-01","institution":{"name":"Federal University of Pernambuco"},"name":"PET Inform\u00e1tica","location":{"country":"Brazil","state":"Pernambuco","city":"Recife"}},{"name":"Monitor de Linguagens de programa\u00e7\u00e3o orientadas a objetos II","start_date":"2018-08-01","institution":{"name":"Federal Institute of Pernambuco"},"end_date":"2018-12-15","location":{"country":"Brazil","state":"Pernambuco","city":"Afogados da Ingazeira"}},{"name":"Monitor de Linguagens de programa\u00e7\u00e3o orientadas a objetos I","start_date":"2018-03-01","institution":{"name":"Federal Institute of Pernambuco"},"end_date":"2018-06-01","location":{"country":"Brazil","state":"Pernambuco","city":"Afogados da Ingazeira"}},{"name":"Monitor de Algoritmos","start_date":"2017-03-01","institution":{"name":"Federal Institute of Pernambuco"},"end_date":"2017-06-01","location":{"country":"Brazil","state":"Pernambuco","city":"Afogados da Ingazeira"}},{"description":"In this project the objective was to develop a gamified application for mobile devices using georeferencing,\nto support the identification of Aedes aegypti outbreaks.","name":"Projeto de extens\u00e3o Sert\u00e3o sem Aedes","end_date":"2017-12-15","start_date":"2017-03-01","institution":{"name":"Federal Institute of Pernambuco"},"location":{"country":"Brazil","state":"Pernambuco","city":"Afogados da Ingazeira"}},{"description":"The project had the proposal of developing a web platform to geo-refer, using Google Maps technology, the\nmain points of interest in the city of Afogados da Ingazeira.","name":"Projeto de extens\u00e3o Acul\u00e1","end_date":"2016-12-15","start_date":"2016-03-01","institution":{"name":"Federal Institute of Pernambuco"},"location":{"country":"Brazil","state":"Pernambuco","city":"Afogados da Ingazeira"}},{"location":{"country":"Brazil","state":"Pernambuco","city":"Recife"},"start_date":"2019-08-01","institution":{"name":"Federal University of Pernambuco"},"end_date":"2020-12-15","name":"Monitor de Introdu\u00e7\u00e3o \u00e0 Programa\u00e7\u00e3o IF669"}],"skill":[{"skill_level":"Basic, 2 years","skill_name":"SQL","skill_type":"Structured Query Language"},{"skill_level":"Intermediate, 4 years","skill_name":"Java","skill_type":"Programming language"},{"skill_level":"Intermediate, 2 years","skill_name":"Python","skill_type":"Programming language"},{"skill_level":"Basic, 1 year","skill_name":"C++","skill_type":"Programming language"},{"skill_level":"Intermediate, 4 years","skill_name":"Git","skill_type":"Version control system"},{"skill_level":"Beginner, 6 months","skill_name":"React","skill_type":"Framework"},{"skill_level":"Intermediate, 1 year","skill_name":"Vue js","skill_type":"Framework"},{"skill_level":"Intermediate, 1 years","skill_name":"Typescript","skill_type":"Programming language"},{"skill_level":"Intermediate, 3 years","skill_name":"Javascript","skill_type":"Programming language"}]}